{"city": "北京","name": "故宫角楼-筒子河倒影","location_hint": "东华门/神武门外筒子河角楼周边","themes": ["古建","倒影","日落","雪景"],"best_time": "日出后、日落前后；雨后/雪后更佳","recommended_lens_or_focal_length": "24-70mm；70-200mm","shooting_tips": "用水面做前景，横构图拍角楼与城墙延伸；长焦压缩红墙与屋脊。","access_and_notes": "热门机位，旺季建议提前到；靠近水边注意安全。","source_urls": ["https://www.sohu.com/a/987692280_122614299","https://www.sohu.com/a/954364215_122519410"],"confidence": "high","lat": 39.940925,"lng": 116.402077,"wgs84_lat": 39.93952,"wgs84_lng": 116.39583,"geo_verified": true,"geocode_source": "nominatim","geocode_query": "故宫角楼 北京市 中国","geocode_display_name": "The Factory 鼓楼工厂, 鼓楼东大街, 钟楼湾社区, 安定门街道, 首都功能核心区, 东城区, 北京市, 100010, 中国","geocode_importance": 8.344167238875436e-05,"geocode_osm_type": "node","geocode_osm_id": 13629814801,"geocode_updated_at": "2026-05-07T12:36:22.270092+00:00"}
{"city": "北京","name": "景山万春亭俯拍紫禁城","location_hint": "景山公园万春亭及西侧观景点","themes": ["城市全景","古建群","中轴线","日落"],"best_time": "晴朗通透日的日落前后","recommended_lens_or_focal_length": "24-70mm；70-200mm","shooting_tips": "中长焦拍中轴线屋脊层次，广角拍紫禁城全景；空气通透度决定成片率。","access_and_notes": "需购票入园；重大节假日人多。","source_urls": ["https://zhuanlan.zhihu.com/p/634409135","https://www.sohu.com/a/954364215_122519410"],"confidence": "high","lat": 39.92586,"lng": 116.39664,"wgs84_lat": 39.924459,"wgs84_lng": 116.390397,"geo_verified": true,"geocode_source": "nominatim","geocode_query": "景山公园 北京市 中国","geocode_display_name": "景山公园, 首都功能核心区, 西城区, 北京市, 100032, 中国","geocode_importance": 0.4417491314623472,"geocode_osm_type": "way","geocode_osm_id": 29201967,"geocode_updated_at": "2026-05-07T12:36:25.280526+00:00"}
{"city": "北京","name": "北海公园白塔与湖面","location_hint": "北海公园琼华岛/北岸/五龙亭周边","themes": ["皇家园林","湖面","白塔","古风人像"],"best_time": "清晨、傍晚、冬季结冰期","recommended_lens_or_focal_length": "35mm；70-200mm","shooting_tips": "用柳枝、船、栏杆做前景；长焦拍白塔与湖面压缩。","access_and_notes": "需购票；冬季冰面拍摄按景区安全要求。","source_urls": ["https://www.sohu.com/a/987692280_122614299"],"confidence": "medium","lat": 39.927799,"lng": 116.3887,"wgs84_lat": 39.926402,"wgs84_lng": 116.382463,"geo_verified": true,"geocode_source": "nominatim","geocode_query": "北海公园 北京市 中国","geocode_display_name": "北海公园, 首都功能核心区, 西城区, 北京市, 100032, 中国","geocode_importance": 0.44650336583499306,"geocode_osm_type": "way","geocode_osm_id": 366464114,"geocode_updated_at": "2026-05-07T12:36:27.541750+00:00"}
{"city": "北京","name": "天坛祈年殿中轴对称","location_hint": "天坛公园祈年殿丹陛桥、回音壁一带","themes": ["古建","对称构图","人像","晨光"],"best_time": "开园后1小时内、闭园前","recommended_lens_or_focal_length": "16-35mm；50mm","shooting_tips": "低机位强化台基线条；避开正午硬光，穿素色/国风服装更出片。","access_and_notes": "需购票；殿前禁止长时间占道。","source_urls": ["https://www.sohu.com/a/987692280_122614299"],"confidence": "high","lat": 39.881309,"lng": 116.409112,"wgs84_lat": 39.879907,"wgs84_lng": 116.402872,"geo_verified": true,"geocode_source": "nominatim","geocode_query": "天坛公园 北京市 中国","geocode_display_name": "天坛公园, 首都功能核心区, 东城区, 北京市, 100010, 中国","geocode_importance": 0.5389376124622165,"geocode_osm_type": "way","geocode_osm_id": 24824550,"geocode_updated_at": "2026-05-07T12:36:29.800058+00:00"}
{"city": "北京","name": "国家大剧院水面倒影","location_hint": "国家大剧院北侧/西侧水池边","themes": ["现代建筑","倒影","夜景","蓝调"],"best_time": "蓝调时刻、夜晚亮灯后","recommended_lens_or_focal_length": "16-35mm；24-70mm","shooting_tips": "对称倒影、低机位贴近水面；雨后地面积水也可做反射。","access_and_notes": "公共区域拍摄，注意安保提示。","source_urls": ["https://www.sohu.com/a/987692280_122614299"],"confidence": "medium","lat": 39.904745,"lng": 116.389783,"wgs84_lat": 39.903349,"wgs84_lng": 116.383548,"geo_verified": true,"geocode_source": "nominatim","geocode_query": "国家大剧院 北京市 中国","geocode_display_name": "国家大剧院, 石碑胡同, 西交民巷社区, 西长安街街道, 首都功能核心区, 西城区, 北京市, 100032, 中国","geocode_importance": 0.44213324126810927,"geocode_osm_type": "way","geocode_osm_id": 4974233,"geocode_updated_at": "2026-05-07T12:36:32.228942+00:00"}
{"city": "北京","name": "国贸CBD天际线","location_hint": "央视大楼、国贸桥、东三环沿线人行天桥/街角","themes": ["城市天际线","商务人像","夜景","车轨"],"best_time": "蓝调时刻、雨后夜景","recommended_lens_or_focal_length": "24-70mm；70-200mm","shooting_tips": "长曝光拍车轨，长焦压缩CBD楼群；雨后反光地面增强都市感。","access_and_notes": "天桥/路边拍摄注意交通安全。","source_urls": ["https://zhuanlan.zhihu.com/p/634409135"],"confidence": "medium","lat": 39.908436,"lng": 116.461793,"wgs84_lat": 39.907094,"wgs84_lng": 116.455632,"geo_verified": true,"geocode_source": "nominatim","geocode_query": "国贸桥 北京市 中国","geocode_display_name": "国贸桥, 北京商务中心区, 建外街道, 朝阳区, 北京市, 100022, 中国","geocode_importance": 0.053416775005722096,"geocode_osm_type": "way","geocode_osm_id": 5218038,"geocode_updated_at": "2026-05-07T12:37:19.654028+00:00"}
{"city": "北京","name": "三里屯太古里街拍","location_hint": "三里屯太古里南北区、机电院街区","themes": ["街拍","潮流人像","商业橱窗","夜景"],"best_time": "傍晚至夜晚","recommended_lens_or_focal_length": "35mm；50mm；85mm","shooting_tips": "利用橱窗霓虹和行人做层次；适合抓拍潮流穿搭。","access_and_notes": "商业区拍摄需避开店铺限制和人流高峰。","source_urls": ["https://www.sohu.com/a/987692280_122614299"],"confidence": "medium","lat": 39.936816,"lng": 116.454761,"wgs84_lat": 39.935457,"wgs84_lng": 116.448577,"geo_verified": true,"geocode_source": "nominatim","geocode_query": "三里屯太古里 北京市 中国","geocode_display_name": "三里屯3·3, 幸福三村四巷, 三里屯太古里北区, 三里屯街道, 朝阳区, 北京市, 100027, 中国","geocode_importance": 8.344167238875436e-05,"geocode_osm_type": "node","geocode_osm_id": 820094091,"geocode_updated_at": "2026-05-07T12:37:22.926404+00:00"}
{"city": "北京","name": "798艺术区涂鸦与工业风","location_hint": "朝阳区酒仙桥路798艺术区","themes": ["工业风","涂鸦","艺术空间","人像"],"best_time": "工作日上午、阴天柔光","recommended_lens_or_focal_length": "24-70mm；35mm","shooting_tips": "红砖、管道、涂鸦墙适合环境人像；用门洞做框架构图。","access_and_notes": "部分展馆/商业空间禁止商业拍摄。","source_urls": ["https://www.sohu.com/a/987692280_122614299"],"confidence": "high","lat": 39.984063,"lng": 116.496536,"wgs84_lat": 39.98281,"wgs84_lng": 116.490484,"geo_verified": true,"geocode_source": "nominatim","geocode_query": "798艺术区 北京市 中国","geocode_display_name": "798艺术区, 酒仙桥街道, 朝阳区, 北京市, 中国","geocode_importance": 0.4134776339011324,"geocode_osm_type": "way","geocode_osm_id": 30663427,"geocode_updated_at": "2026-05-07T12:37:26.566755+00:00"}
{"city": "北京","name": "首钢园高炉与冬奥元素","location_hint": "石景山区首钢园三高炉、滑雪大跳台周边","themes": ["工业遗产","赛博感","建筑","夜景"],"best_time": "傍晚蓝调、夜景亮灯","recommended_lens_or_focal_length": "16-35mm；70-200mm","shooting_tips": "高炉、大跳台和水面可组合；长焦拍钢结构细节。","access_and_notes": "园区范围大，提前规划步行路线。","source_urls": ["https://www.sohu.com/a/987692280_122614299"],"confidence": "high","lat": 40.18871,"lng": 116.186438,"wgs84_lat": 40.187399,"wgs84_lng": 116.180249,"geo_verified": true,"geocode_source": "nominatim","geocode_query": "首钢园 北京市 中国","geocode_display_name": "原首钢红冶钢厂, 马池口镇, 昌平区, 北京市, 中国","geocode_importance": 0.08005744487678337,"geocode_osm_type": "way","geocode_osm_id": 1068764577,"geocode_updated_at": "2026-05-07T12:37:29.462774+00:00"}
{"city": "北京","name": "红砖美术馆庭院","location_hint": "朝阳区崔各庄乡何各庄红砖美术馆","themes": ["红砖建筑","艺术园林","极简人像"],"best_time": "上午/下午侧光、阴天","recommended_lens_or_focal_length": "35mm；50mm；85mm","shooting_tips": "利用红砖拱门、圆形窗洞和水面做几何构图。","access_and_notes": "需购票；馆内商业拍摄政策需提前确认。","source_urls": ["https://www.sohu.com/a/987692280_122614299"],"confidence": "high","lat": 40.04234,"lng": 116.499833,"wgs84_lat": 40.041094,"wgs84_lng": 116.493786,"geo_verified": true,"geocode_source": "nominatim","geocode_query": "红砖美术馆 北京市 中国","geocode_display_name": "红砖美术馆, 顺白路, 崔各庄乡, 朝阳区, 北京市, 100103, 中国","geocode_importance": 5.9022659647471085e-05,"geocode_osm_type": "way","geocode_osm_id": 410678516,"geocode_updated_at": "2026-05-07T12:37:32.653759+00:00"}
{"city": "北京","name": "雍和宫红墙银杏","location_hint": "雍和宫大街、雍和宫院内红墙与银杏","themes": ["寺庙","红墙","秋色","人像"],"best_time": "10月下旬-11月上旬；上午柔光","recommended_lens_or_focal_length": "50mm；85mm","shooting_tips": "红墙+银杏叶适合浅景深人像；避开香客正面拍摄。","access_and_notes": "宗教场所需保持安静，不要影响参拜。","source_urls": ["https://zhuanlan.zhihu.com/p/634409135"],"confidence": "medium","lat": 39.946983,"lng": 116.417251,"wgs84_lat": 39.945579,"wgs84_lng": 116.411005,"geo_verified": true,"geocode_source": "nominatim","geocode_query": "雍和宫 北京市 中国","geocode_display_name": "雍和宫, 戏楼胡同, 前永康社区, 北新桥街道, 首都功能核心区, 东城区, 北京市, 100010, 中国","geocode_importance": 0.46579012336862585,"geocode_osm_type": "way","geocode_osm_id": 24825312,"geocode_updated_at": "2026-05-07T12:37:35.090005+00:00"}
{"city": "北京","name": "鼓楼/钟楼中轴街景","location_hint": "鼓楼东大街、钟鼓楼广场、烟袋斜街入口","themes": ["胡同","古建","街拍","中轴线"],"best_time": "清晨、傍晚","recommended_lens_or_focal_length": "35mm；70-200mm","shooting_tips": "长焦拍钟鼓楼与胡同街景压缩；雨雪天更有氛围。","access_and_notes": "路口人车多，避免站在机动车道。","source_urls": ["https://www.sohu.com/a/987692280_122614299"],"confidence": "medium","lat": 39.94014,"lng": 116.401596,"wgs84_lat": 39.938736,"wgs84_lng": 116.395349,"geo_verified": true,"geocode_source": "nominatim","geocode_query": "北京鼓楼 北京市 中国","geocode_display_name": "北京市第五中学分校（鼓楼校区）, 鼓楼东大街, 钟楼湾社区, 安定门街道, 首都功能核心区, 东城区, 北京市, 100010, 中国","geocode_importance": 8.344167238875436e-05,"geocode_osm_type": "way","geocode_osm_id": 962135678,"geocode_updated_at": "2026-05-07T12:37:37.558064+00:00"}
{"city": "北京","name": "什刹海银锭桥","location_hint": "后海银锭桥、烟袋斜街、前海西岸","themes": ["湖景","胡同","夜景","人文"],"best_time": "日落后蓝调、冬季雪后","recommended_lens_or_focal_length": "35mm；50mm","shooting_tips": "桥上拍湖面与远处建筑，夜晚用灯笼和水面反光。","access_and_notes": "游客多，三脚架可能影响通行。","source_urls": ["https://www.sohu.com/a/987692280_122614299"],"confidence": "medium","lat": 39.937355,"lng": 116.396309,"wgs84_lat": 39.935953,"wgs84_lng": 116.390065,"geo_verified": true,"geocode_source": "nominatim","geocode_query": "什刹海 北京市 中国","geocode_display_name": "什刹海, 地安门外大街, 什刹海, 什刹海街道, 首都功能核心区, 东城区, 北京市, 100032, 中国","geocode_importance": 0.36902538090653614,"geocode_osm_type": "node","geocode_osm_id": 5305505993,"geocode_updated_at": "2026-05-07T12:37:40.823265+00:00"}
{"city": "北京","name": "颐和园佛香阁与昆明湖","location_hint": "颐和园昆明湖西堤、十七孔桥、佛香阁沿线","themes": ["皇家园林","桥洞金光","湖景","古建"],"best_time": "冬至前后十七孔桥金光；日落","recommended_lens_or_focal_length": "24-70mm；100-400mm","shooting_tips": "长焦拍十七孔桥桥洞金光；西堤适合拍佛香阁倒影。","access_and_notes": "需购票；金光季机位极拥挤。","source_urls": ["https://www.sohu.com/a/987692280_122614299"],"confidence": "high","lat": 39.991322,"lng": 116.270781,"wgs84_lat": 39.990098,"wgs84_lng": 116.26474,"geo_verified": true,"geocode_source": "nominatim","geocode_query": "颐和园 北京市 中国","geocode_display_name": "颐和园, 19, 海淀区, 北京市, 100091, 中国","geocode_importance": 0.5447828982945416,"geocode_osm_type": "way","geocode_osm_id": 29228773,"geocode_updated_at": "2026-05-07T12:37:43.364975+00:00"}
{"city": "北京","name": "慕田峪长城高位烽火台","location_hint": "怀柔慕田峪长城高段烽火台","themes": ["长城","山脊","日出日落","秋色"],"best_time": "春秋季、日出/日落","recommended_lens_or_focal_length": "16-35mm；70-200mm","shooting_tips": "用城墙曲线引导视线，长焦压缩烽火台层次。","access_and_notes": "需购票；早晚拍摄注意交通与返程。","source_urls": ["https://www.sohu.com/a/954364215_122519410"],"confidence": "medium","lat": 40.43557,"lng": 116.569332,"wgs84_lat": 40.434425,"wgs84_lng": 116.563456,"geo_verified": true,"geocode_source": "nominatim","geocode_query": "慕田峪长城 北京市 中国","geocode_display_name": "慕田峪长城, 雁栖镇, 怀柔区, 北京市, 101405, 中国","geocode_importance": 0.42044889705287697,"geocode_osm_type": "way","geocode_osm_id": 85322148,"geocode_updated_at": "2026-05-07T12:37:46.785777+00:00"}
{"city": "北京","name": "故宫午门/太和门轴线","location_hint": "故宫博物院午门、太和门广场、中轴线","themes": ["古建","对称","宫廷人像"],"best_time": "开门后第一批入场、阴天","recommended_lens_or_focal_length": "16-35mm；24-70mm","shooting_tips": "低机位拍红墙黄瓦纵深，人物置于中轴线偏下。","access_and_notes": "需提前预约购票；人流密集。","source_urls": ["https://www.sohu.com/a/987692280_122614299"],"confidence": "high","lat": 39.918833,"lng": 116.397024,"wgs84_lat": 39.917431,"wgs84_lng": 116.390782,"geo_verified": true,"geocode_source": "nominatim","geocode_query": "故宫博物院 北京市 中国","geocode_display_name": "故宫博物院, 4号, 景山前街, 智德社区, 东华门街道, 首都功能核心区, 东城区, 北京市, 100010, 中国","geocode_importance": 0.48844059519745653,"geocode_osm_type": "node","geocode_osm_id": 3884441391,"geocode_updated_at": "2026-05-07T12:37:49.323375+00:00"}
{"city": "北京","name": "中国尊与央视大楼同框","location_hint": "国贸桥、东三环沿线公开步道/天桥","themes": ["摩天楼","城市夜景","建筑摄影"],"best_time": "蓝调时刻、雨后","recommended_lens_or_focal_length": "24-70mm；70-200mm","shooting_tips": "利用车流光轨增强都市速度感；长焦框住中国尊和央视大楼。","access_and_notes": "注意不要在车道或桥面危险位置停留。","source_urls": ["https://zhuanlan.zhihu.com/p/634409135"],"confidence": "medium","lat": 39.912833,"lng": 116.466384,"wgs84_lat": 39.911501,"wgs84_lng": 116.460236,"geo_verified": true,"geocode_source": "nominatim","geocode_query": "中国尊 北京市 中国","geocode_display_name": "中国尊, 10, 光华路, 北京商务中心区, 建外街道, 朝阳区, 北京市, 100026, 中国","geocode_importance": 0.45934507089358295,"geocode_osm_type": "way","geocode_osm_id": 599547918,"geocode_updated_at": "2026-05-07T12:37:52.011502+00:00"}
{"city": "北京","name": "前门大街与正阳门","location_hint": "前门大街北口、正阳门箭楼周边","themes": ["老北京","商业街","古建","夜景"],"best_time": "清晨无人、夜晚亮灯","recommended_lens_or_focal_length": "24-70mm；35mm","shooting_tips": "正阳门做背景，利用街灯、轨道车和店招营造老城氛围。","access_and_notes": "商业街人多，抓拍需尊重肖像权。","source_urls": ["https://www.sohu.com/a/987692280_122614299"],"confidence": "medium","lat": 39.889326,"lng": 116.398286,"wgs84_lat": 39.887925,"wgs84_lng": 116.392047,"geo_verified": true,"geocode_source": "nominatim","geocode_query": "前门大街 北京市 中国","geocode_display_name": "前门大街, 天桥街道, 首都功能核心区, 西城区, 北京市, 100032, 中国","geocode_importance": 0.3343910964012564,"geocode_osm_type": "way","geocode_osm_id": 59210908,"geocode_updated_at": "2026-05-07T12:37:54.724521+00:00"}
{"city": "北京","name": "奥林匹克公园鸟巢水立方","location_hint": "国家体育场/国家游泳中心外广场","themes": ["现代建筑","夜景","体育地标"],"best_time": "蓝调时刻、夜晚亮灯","recommended_lens_or_focal_length": "16-35mm；24-70mm","shooting_tips": "用广场线条做引导，低机位拍鸟巢结构；水立方适合夜景。","access_and_notes": "大型活动期间管控较多。","source_urls": ["https://www.sohu.com/a/987692280_122614299"],"confidence": "medium","lat": 39.992808,"lng": 116.396538,"wgs84_lat": 39.991404,"wgs84_lng": 116.390286,"geo_verified": true,"geocode_source": "nominatim","geocode_query": "国家体育场 北京市 中国","geocode_display_name": "国家体育场, 规划五路, 娘娘坟, 奥运村街道, 朝阳区, 北京市, 100120, 中国","geocode_importance": 0.5584342142981632,"geocode_osm_type": "way","geocode_osm_id": 152301551,"geocode_updated_at": "2026-05-07T12:37:56.974298+00:00"}
{"city": "北京","name": "中央电视塔/玉渊潭视角","location_hint": "玉渊潭公园湖边、樱花园及中央电视塔周边","themes": ["城市地标","湖景","樱花","倒影"],"best_time": "樱花季清晨、日落","recommended_lens_or_focal_length": "70-200mm；24-70mm","shooting_tips": "春季樱花作前景拍电视塔；湖面平静时拍倒影。","access_and_notes": "樱花季人流大，需早点到。","source_urls": ["https://www.sohu.com/a/987692280_122614299"],"confidence": "medium","lat": 39.919463,"lng": 116.306376,"wgs84_lat": 39.918202,"wgs84_lng": 116.3003,"geo_verified": true,"geocode_source": "nominatim","geocode_query": "中央电视塔 北京市 中国","geocode_display_name": "中央电视塔, 西三环中路, 甘家口街道, 海淀区, 北京市, 100862, 中国","geocode_importance": 0.4222375047343451,"geocode_osm_type": "way","geocode_osm_id": 403383764,"geocode_updated_at": "2026-05-07T12:37:59.412283+00:00"}
