{"city": "青岛","name": "栈桥海鸥与回澜阁","location_hint": "市南区太平路栈桥景区","themes": ["海鸥","地标","海景","冬季"],"best_time": "冬季海鸥季清晨/傍晚","recommended_lens_or_focal_length": "70-200mm；100-400mm","shooting_tips": "低机位拍海鸥掠过回澜阁；快门1/1000s以上。","access_and_notes": "海边风大，注意器材防潮。","source_urls": ["https://www.sohu.com/a/922982844_100172647","https://www.douyin.com/note/7369966229034913087"],"confidence": "high","lat": 36.176436,"lng": 120.376349,"wgs84_lat": 36.176145,"wgs84_lng": 120.371212,"geo_verified": true,"geocode_source": "nominatim","geocode_query": "青岛栈桥 青岛市 中国","geocode_display_name": "青岛公交集团李沧巴士有限公司第八分公司, 站前路, 沧口街道, 李沧区, 青岛市, 山东省, 266021, 中国","geocode_importance": 7.073548485537526e-05,"geocode_osm_type": "node","geocode_osm_id": 13523841998,"geocode_updated_at": "2026-05-07T12:42:29.803020+00:00"}
{"city": "青岛","name": "小青岛公园灯塔","location_hint": "小青岛公园、琴屿路尽头","themes": ["灯塔","海湾","日落","文艺"],"best_time": "下午至日落、蓝调","recommended_lens_or_focal_length": "24-70mm；70-200mm","shooting_tips": "灯塔、海岸线和城市背景同框，适合海边人像。","access_and_notes": "可能需预约/购票，以现场为准。","source_urls": ["https://post.smzdm.com/zz/p/a0vd9939/","https://news.qq.com/rain/a/20250929A02RYN00","https://www.douyin.com/note/7369966229034913087"],"confidence": "high","lat": 36.053223,"lng": 120.323738,"wgs84_lat": 36.053052,"wgs84_lng": 120.318689,"geo_verified": true,"geocode_source": "nominatim","geocode_query": "小青岛公园 青岛市 中国","geocode_display_name": "小青岛公园, 八大关街道, 市南区, 青岛市, 山东省, 266001, 中国","geocode_importance": 0.0800707354848554,"geocode_osm_type": "way","geocode_osm_id": 183693241,"geocode_updated_at": "2026-05-07T12:42:32.933649+00:00"}
{"city": "青岛","name": "琴屿路S弯海边公路","location_hint": "琴屿路沿线、小青岛至鲁迅公园一带","themes": ["海边公路","S弯","街拍","日落"],"best_time": "下午、日落前","recommended_lens_or_focal_length": "35mm；70-200mm","shooting_tips": "利用弯道和海岸线引导视线，长焦拍人车海同框。","access_and_notes": "道路狭窄，避开车道拍摄。","source_urls": ["https://news.qq.com/rain/a/20250929A02RYN00","https://www.sohu.com/a/922982844_100172647"],"confidence": "high","lat": 36.053223,"lng": 120.323738,"wgs84_lat": 36.053052,"wgs84_lng": 120.318689,"geo_verified": true,"geocode_source": "nominatim","geocode_query": "小青岛公园 青岛市 中国","geocode_display_name": "小青岛公园, 八大关街道, 市南区, 青岛市, 山东省, 266001, 中国","geocode_importance": 0.0800707354848554,"geocode_osm_type": "way","geocode_osm_id": 183693241,"geocode_updated_at": "2026-05-07T12:42:32.934234+00:00"}
{"city": "青岛","name": "小鱼山俯瞰红瓦绿树","location_hint": "小鱼山公园观景台/福山支路附近","themes": ["城市全景","红瓦绿树","海湾"],"best_time": "晴天上午、傍晚","recommended_lens_or_focal_length": "24-70mm；70-200mm","shooting_tips": "俯拍老城、栈桥与海岸线；长焦拍红瓦屋顶层次。","access_and_notes": "需购票或预约以景区政策为准。","source_urls": ["https://post.smzdm.com/zz/p/a0vd9939/","https://www.douyin.com/note/7369966229034913087","https://www.sohu.com/a/922982844_100172647"],"confidence": "high","lat": 36.058864,"lng": 120.336345,"wgs84_lat": 36.058667,"wgs84_lng": 120.331275,"geo_verified": true,"geocode_source": "nominatim","geocode_query": "小鱼山公园 青岛市 中国","geocode_display_name": "小鱼山公园, 八大关街道, 市南区, 青岛市, 山东省, 266001, 中国","geocode_importance": 0.0800707354848554,"geocode_osm_type": "way","geocode_osm_id": 154258767,"geocode_updated_at": "2026-05-07T12:42:36.880166+00:00"}
{"city": "青岛","name": "信号山日落全景","location_hint": "信号山公园旋转观景楼/山顶观景台","themes": ["日落","城市全景","红顶建筑"],"best_time": "日落前1小时至蓝调","recommended_lens_or_focal_length": "24-70mm；70-200mm","shooting_tips": "拍老城与海湾，日落时注意保留天空层次。","access_and_notes": "热门日落点，提前上山。","source_urls": ["https://news.qq.com/rain/a/20250929A02RYN00","https://www.douyin.com/note/7369966229034913087"],"confidence": "high","lat": 36.06652,"lng": 120.331503,"wgs84_lat": 36.066331,"wgs84_lng": 120.32644,"geo_verified": true,"geocode_source": "nominatim","geocode_query": "信号山公园 青岛市 中国","geocode_display_name": "信号山公园, 江苏路街道, 市南区, 青岛市, 山东省, 266001, 中国","geocode_importance": 0.2647815871063118,"geocode_osm_type": "way","geocode_osm_id": 154259225,"geocode_updated_at": "2026-05-07T12:42:40.047871+00:00"}
{"city": "青岛","name": "福山支路16号框景看海","location_hint": "福山支路16号附近建筑缝隙/坡道","themes": ["框景","海景","老城街巷"],"best_time": "下午蓝海、晴天","recommended_lens_or_focal_length": "50mm；70-200mm","shooting_tips": "用建筑缝隙做天然画框，人物站在框内或坡道尽头。","access_and_notes": "居民区附近保持安静，不要入侵私宅。","source_urls": ["https://news.qq.com/rain/a/20250929A02RYN00","https://www.sohu.com/a/922982844_100172647"],"confidence": "high","lat": 36.308798,"lng": 120.526455,"wgs84_lat": 36.308698,"wgs84_lng": 120.521662,"geo_verified": true,"geocode_source": "nominatim","geocode_query": "坡道 青岛市 中国","geocode_display_name": "石道坡, 青岛市, 山东省, 266000, 中国","geocode_importance": 0.14673740215152203,"geocode_osm_type": "node","geocode_osm_id": 5418276458,"geocode_updated_at": "2026-05-07T12:42:45.670919+00:00"}
{"city": "青岛","name": "龙江路宫崎骏墙与街角","location_hint": "龙江路、大学路附近街区","themes": ["漫画墙","咖啡店","街拍","文艺"],"best_time": "上午或下午柔光","recommended_lens_or_focal_length": "35mm；50mm","shooting_tips": "街角店铺、涂鸦墙和坡道可连续拍摄。","access_and_notes": "热门街区，避开周末高峰。","source_urls": ["https://news.qq.com/rain/a/20250929A02RYN00","https://www.sohu.com/a/922982844_100172647","https://www.douyin.com/note/7369966229034913087"],"confidence": "high","lat": 36.648928,"lng": 120.540464,"wgs84_lat": 36.648709,"wgs84_lng": 120.535689,"geo_verified": true,"geocode_source": "nominatim","geocode_query": "龙江路 青岛市 中国","geocode_display_name": "龙江路, 姜山镇, 莱西市, 青岛市, 山东省, 266600, 中国","geocode_importance": 0.05340406881818872,"geocode_osm_type": "way","geocode_osm_id": 1395648546,"geocode_updated_at": "2026-05-07T12:42:48.486089+00:00"}
{"city": "青岛","name": "圣弥厄尔教堂广场","location_hint": "浙江路15号天主教堂广场","themes": ["欧式建筑","广场人像","婚纱"],"best_time": "清晨、阴天、蓝调","recommended_lens_or_focal_length": "24-70mm；35mm","shooting_tips": "广角拍双塔对称，人物居中；阴天更能保留立面细节。","access_and_notes": "需尊重宗教场所秩序。","source_urls": ["https://www.sohu.com/a/922982844_100172647"],"confidence": "high"}
{"city": "青岛","name": "西陵峡一路通向大海","location_hint": "西陵峡一路/栈桥西侧街区","themes": ["通往大海的路","街景","海岸线"],"best_time": "晴天下午、傍晚","recommended_lens_or_focal_length": "70-200mm；50mm","shooting_tips": "长焦压缩路尽头的海，行人/骑行作画面点缀。","access_and_notes": "路边拍摄注意车辆。","source_urls": ["https://news.qq.com/rain/a/20250929A02RYN00"],"confidence": "high","lat": 36.176436,"lng": 120.376349,"wgs84_lat": 36.176145,"wgs84_lng": 120.371212,"geo_verified": true,"geocode_source": "nominatim","geocode_query": "青岛栈桥 青岛市 中国","geocode_display_name": "青岛公交集团李沧巴士有限公司第八分公司, 站前路, 沧口街道, 李沧区, 青岛市, 山东省, 266021, 中国","geocode_importance": 7.073548485537526e-05,"geocode_osm_type": "node","geocode_osm_id": 13523841998,"geocode_updated_at": "2026-05-07T12:42:58.667249+00:00"}
{"city": "青岛","name": "八大峡海上钢琴键","location_hint": "八大峡广场/海边栈道一带","themes": ["海岸栈道","影视同款","几何线条"],"best_time": "日出、下午侧光","recommended_lens_or_focal_length": "24-70mm；35mm","shooting_tips": "利用栈道线条和海面拍青春感人像。","access_and_notes": "风浪大时不要靠近湿滑边缘。","source_urls": ["https://news.qq.com/rain/a/20250929A02RYN00"],"confidence": "high","lat": 36.053031,"lng": 120.309839,"wgs84_lat": 36.052885,"wgs84_lng": 120.304811,"geo_verified": true,"geocode_source": "nominatim","geocode_query": "八大峡广场 青岛市 中国","geocode_display_name": "八大峡广场, 八大峡社区, 八大峡街道, 市南区, 青岛市, 山东省, 266001, 中国","geocode_importance": 0.0800707354848554,"geocode_osm_type": "way","geocode_osm_id": 241481755,"geocode_updated_at": "2026-05-07T12:43:00.957390+00:00"}
{"city": "青岛","name": "八大关第二海水浴场","location_hint": "八大关景区、第二海水浴场木栈道/礁石","themes": ["沙滩","礁石","欧式建筑","潮汐"],"best_time": "退潮/涨潮交替、日出日落","recommended_lens_or_focal_length": "24-70mm；70-200mm","shooting_tips": "礁石与浪花做前景，八大关别墅群可串联拍摄。","access_and_notes": "需看潮汐表，湿滑礁石注意安全。","source_urls": ["https://www.sohu.com/a/922982844_100172647","https://www.douyin.com/note/7369966229034913087"],"confidence": "high","lat": 28.601874,"lng": 115.908443,"wgs84_lat": 28.605284,"wgs84_lng": 115.903611,"geo_verified": true,"geocode_source": "nominatim","geocode_query": "八大关景区 青岛市 中国","geocode_display_name": "八大山人, 迎宾中大道, 迎宾社区, 梅湖社区, 岱山街道, 青云谱区, 小蓝经开区, 南昌县, 南昌市, 江西省, 330052, 中国","geocode_importance": 0.20813244289121335,"geocode_osm_type": "node","geocode_osm_id": 2558472061,"geocode_updated_at": "2026-05-07T12:43:03.947951+00:00"}
{"city": "青岛","name": "花石楼外立面","location_hint": "八大关黄海路18号花石楼周边","themes": ["欧式古堡","建筑人像","复古"],"best_time": "上午侧光、阴天","recommended_lens_or_focal_length": "24-70mm；35mm","shooting_tips": "低机位拍城堡感立面；窗台、楼梯适合复古构图。","access_and_notes": "景区开放时间以现场为准。","source_urls": ["https://www.sohu.com/a/922982844_100172647"],"confidence": "medium"}
{"city": "青岛","name": "大学路红墙转角","location_hint": "大学路与鱼山路附近红墙街区","themes": ["红墙","街角","文艺人像"],"best_time": "清晨、下午柔光","recommended_lens_or_focal_length": "35mm；50mm","shooting_tips": "红墙、路牌、树影组合，适合日系/复古人像。","access_and_notes": "人流多，注意排队拍摄。","source_urls": ["https://news.qq.com/rain/a/20250929A02RYN00"],"confidence": "medium","lat": 36.061972,"lng": 120.332649,"wgs84_lat": 36.061782,"wgs84_lng": 120.327585,"geo_verified": true,"geocode_source": "nominatim","geocode_query": "大学路 青岛市 中国","geocode_display_name": "大学路, 江苏路街道, 市南区, 青岛市, 山东省, 266001, 中国","geocode_importance": 0.05340406881818872,"geocode_osm_type": "way","geocode_osm_id": 1144481074,"geocode_updated_at": "2026-05-07T12:43:19.939403+00:00"}
{"city": "青岛","name": "德县路老建筑街景","location_hint": "德县路、广西路一带老城街区","themes": ["德式建筑","街拍","老城"],"best_time": "上午或傍晚","recommended_lens_or_focal_length": "35mm；50mm","shooting_tips": "用坡道、老建筑和路牌拍电影感街景。","access_and_notes": "居民区和道路拍摄注意不扰民。","source_urls": ["https://www.douyin.com/note/7369966229034913087"],"confidence": "medium","lat": 36.066494,"lng": 120.322909,"wgs84_lat": 36.066321,"wgs84_lng": 120.317859,"geo_verified": true,"geocode_source": "nominatim","geocode_query": "德县路 青岛市 中国","geocode_display_name": "德县路, 泰安路社区, 中山路街道, 市南区, 青岛市, 山东省, 266001, 中国","geocode_importance": 0.05340406881818872,"geocode_osm_type": "way","geocode_osm_id": 1146179031,"geocode_updated_at": "2026-05-07T12:43:24.694699+00:00"}
{"city": "青岛","name": "小麦岛公园草坪海岸","location_hint": "小麦岛公园环岛步道、草坪坡地","themes": ["草坪","海岸","日落","人像"],"best_time": "日落前后、晴天","recommended_lens_or_focal_length": "24-70mm；70-200mm","shooting_tips": "草坪坡地+海面适合清新人像，夕阳逆光拍剪影。","access_and_notes": "周末人多，海边风大。","source_urls": ["https://www.douyin.com/note/7369966229034913087"],"confidence": "high"}
{"city": "青岛","name": "燕儿岛山海栈道","location_hint": "燕儿岛山公园/智慧公园海边步道","themes": ["海岸栈道","礁石","日落"],"best_time": "日落、蓝调","recommended_lens_or_focal_length": "24-70mm；35mm","shooting_tips": "顺栈道线条拍海岸，人物背光剪影。","access_and_notes": "栈道狭窄，避免占道。","source_urls": ["https://www.douyin.com/note/7369966229034913087"],"confidence": "high","lat": 36.055188,"lng": 120.405636,"wgs84_lat": 36.054906,"wgs84_lng": 120.400505,"geo_verified": true,"geocode_source": "nominatim","geocode_query": "燕儿岛山公园 青岛市 中国","geocode_display_name": "燕儿岛山公园, 澳门路社区, 珠海路街道, 市南区, 青岛市, 山东省, 266001, 中国","geocode_importance": 0.0800707354848554,"geocode_osm_type": "way","geocode_osm_id": 535266532,"geocode_updated_at": "2026-05-07T12:43:43.441029+00:00"}
{"city": "青岛","name": "石老人海水浴场","location_hint": "崂山区石老人海水浴场及石老人礁石远景","themes": ["日出","海滩","地标礁石"],"best_time": "日出、清晨","recommended_lens_or_focal_length": "24-70mm；70-200mm","shooting_tips": "日出时拍礁石剪影与海浪，长曝光柔化水面。","access_and_notes": "注意潮汐与海浪。","source_urls": ["https://www.douyin.com/note/7369966229034913087"],"confidence": "high","lat": 36.090859,"lng": 120.468399,"wgs84_lat": 36.090649,"wgs84_lng": 120.463397,"geo_verified": true,"geocode_source": "nominatim","geocode_query": "石老人海水浴场 青岛市 中国","geocode_display_name": "石老人海水浴场, 金家岭街道, 崂山区, 青岛市, 山东省, 266100, 中国","geocode_importance": 0.10673740215152207,"geocode_osm_type": "way","geocode_osm_id": 439263573,"geocode_updated_at": "2026-05-07T12:43:54.282785+00:00"}
{"city": "青岛","name": "沙子口渔港彩色村落","location_hint": "崂山区沙子口休闲广场/渔港周边","themes": ["渔村","港口","日落","人文"],"best_time": "傍晚、日落","recommended_lens_or_focal_length": "24-70mm；70-200mm","shooting_tips": "渔船、山体和彩色建筑同框，日落色彩更丰富。","access_and_notes": "港区注意作业车辆与安全边界。","source_urls": ["https://news.qq.com/rain/a/20250929A02RYN00","https://www.sohu.com/a/922982844_100172647"],"confidence": "high","lat": 35.899269,"lng": 120.09949,"wgs84_lat": 35.899032,"wgs84_lng": 120.09414,"geo_verified": true,"geocode_source": "nominatim","geocode_query": "渔港 青岛市 中国","geocode_display_name": "香港鲤鱼门海鲜城, 灵山卫街道, 青岛西海岸新区, 黄岛区, 青岛市, 山东省, 266500, 中国","geocode_importance": 0.0800707354848554,"geocode_osm_type": "way","geocode_osm_id": 510591170,"geocode_updated_at": "2026-05-07T12:44:01.451280+00:00"}
{"city": "青岛","name": "翡翠馨园通海公路","location_hint": "崂山区翡翠馨园附近通向海边道路","themes": ["通往大海的路","电影感","人像"],"best_time": "晴天下午","recommended_lens_or_focal_length": "70-200mm；50mm","shooting_tips": "长焦压缩坡路尽头的海面，人物在路侧行走。","access_and_notes": "不要站机动车道。","source_urls": ["https://news.qq.com/rain/a/20250929A02RYN00"],"confidence": "medium","lat": 31.764556,"lng": 117.204099,"wgs84_lat": 31.766511,"wgs84_lng": 117.198592,"geo_verified": true,"geocode_source": "nominatim","geocode_query": "翡翠馨园通海公路 青岛市 中国","geocode_display_name": "翡翠路, 翡翠湖居民委员会, 芙蓉社区, 合肥经济技术开发区, 蜀山区, 合肥市, 安徽省, 230601, 中国","geocode_importance": 0.0533996253910124,"geocode_osm_type": "way","geocode_osm_id": 493388198,"geocode_updated_at": "2026-05-07T12:44:08.284395+00:00"}
{"city": "青岛","name": "威尔德咖啡馆海景窗","location_hint": "青岛老城/海边咖啡馆窗景（以店铺实时位置为准）","themes": ["窗景","咖啡馆","蓝色海面","人像"],"best_time": "下午海面最蓝时","recommended_lens_or_focal_length": "35mm；50mm","shooting_tips": "用窗框取景拍海和人物，曝光锁定窗外高光。","access_and_notes": "商业店铺需消费与遵守拍摄规定；位置可能变化。","source_urls": ["https://news.qq.com/rain/a/20250929A02RYN00"],"confidence": "medium","lat": 30.243119,"lng": 120.160594,"wgs84_lat": 30.245452,"wgs84_lng": 120.155904,"geo_verified": true,"geocode_source": "nominatim","geocode_query": "青岛老城 青岛市 中国","geocode_display_name": "中国美术学院, 218, 南山路, 劳动路社区, 清波街道, 上城区, 杭州市, 浙江省, 310002, 中国","geocode_importance": 0.47082243524751777,"geocode_osm_type": "relation","geocode_osm_id": 6623186,"geocode_updated_at": "2026-05-07T12:44:11.019859+00:00"}
